[{"street":"7 East 10th Street","name":"N.Y.U Bronfman Center","city":"New York","state":"NY","lat":"40.7332068","long":"-73.9946888"},{"street":"155 East 22nd Street","name":"Gustavus Adolphus Church","city":"New York","state":"NY","lat":"40.7384244","long":"-73.9840055"},{"street":"61 Fourth Avenue","name":"Three Jewels Community Center","city":"New York","state":"NY","lat":"40.6822459","long":"-73.9795061"},{"street":"208 West 13th Street","name":"Lesbian, Gay, Bi-Sexual &amp; Transgender Community Center","city":"New York","state":"NY","lat":"40.7381228","long":"-74.0010304"},{"street":"123 East 15th Street","name":"Seafarers &amp; Intl House","city":"New York","state":"NY","lat":"40.7346341","long":"-73.9879773"},{"street":"61 Gramercy Park North","name":"Calvary Church Parish House","city":"New York","state":"NY","lat":"40.7387068","long":"-73.986572"},{"street":"155 East 22nd Street","name":"Gustavus Adolphus Lutheran Church","city":"New York","state":"NY","lat":"40.7384244","long":"-73.9840055"},{"street":"127 East 22nd Street","name":"Mabel Bacon High School of the Future","city":"New York","state":"NY","lat":"40.7390247","long":"-73.9854161"},{"street":"602 East 9th Street","name":"Trinity Lower East Side Lutheran Parish","city":"New York","state":"NY","lat":"40.7260409","long":"-73.9800393"},{"street":"125 West 14th Street","name":"McBurney YMCA","city":"New York","state":"NY","lat":"40.7379244","long":"-73.9976813"},{"street":"346 W. 20th Street","name":"St. Peters Episcopal Church- Rectory","city":"New York","state":"NY","lat":"40.7441452","long":"-74.0019191"},{"street":"125 West 14th Street","name":"McBurney YMCA","city":"New York","state":"NY","lat":"40.7379244","long":"-73.9976813"},{"street":"414 East 14th Street","name":"Our Lady of Immaculate Conception","city":"New York","state":"NY","lat":"40.7309298","long":"-73.9819876"},{"street":"119 Ninth Avenue","name":"Fulton Senior Center","city":"New York","state":"NY","lat":"40.7432442","long":"-74.0039393"},{"street":"202 West 24 Street","name":"Christopher House","city":"New York","state":"NY","lat":"40.7449478","long":"-73.995862"},{"street":"28 Gramercy Park South","name":"Brotherhood Synagogue","city":"New York","state":"NY","lat":"40.7371499","long":"-73.9853123"},{"street":"50 East 7th Street","name":"Middle Collegiate Church","city":"New York","state":"NY","lat":"40.6519369","long":"-73.9750389"},{"street":"273 Bowery","name":"University Settlement House","city":"New York","state":"NY","lat":"40.7236736","long":"-73.9924832"},{"street":"802 Broadway","name":"Grace Church Office Building","city":"New York","state":"NY","lat":"40.7320395","long":"-73.991189"},{"street":"28 Grammercy Park South","name":"Brothhood Synagogue","city":"New York","state":"NY","lat":"40.7371499","long":"-73.9853123"},{"street":"209 East 16th Street","name":"Saint George Episcopal Church","city":"New York","state":"NY","lat":"40.7345135","long":"-73.9854432"},{"street":"44 2nd Avenue","name":"Church of the Nativity","city":"New York","state":"NY","lat":"40.7251086","long":"-73.9899858"},{"street":"229 West 14th Street","name":"Our Lady of Guadalupe Church","city":"New York","state":"NY","lat":"40.7392489","long":"-74.0008788"},{"street":"229 West 14th Street","name":"Our Lady of Guadalupe Church","city":"New York","state":"NY","lat":"40.7392489","long":"-74.0008788"},{"street":"208 West 13th Street","name":"Lesbian, Gay, Bi-Sexual &amp; Transgender Community Center","city":"New York","state":"NY","lat":"40.7381228","long":"-74.0010304"},{"street":"28 Gramercy Park South","name":"Brotherhood Synagogue","city":"New York","state":"NY","lat":"40.7371499","long":"-73.9853123"},{"street":"208 W 13th Street","name":"Lesbian, Gay, Bisexual, &amp; Transgender Community Center","city":"New York","state":"NY","lat":"40.7381228","long":"-74.0010304"},{"street":"307 W. 26th St.","name":"The Upright Citizens Brigade Theatre","city":"New York","state":"NY","lat":"40.7474685","long":"-73.9974137"},{"street":"343 West 25th Street","name":"St. Columba Church","city":"New York","state":"NY","lat":"40.747411","long":"-73.9992698"},{"street":"80 St. Mark&apos;s Place","name":"Theatre 80","city":"New York","state":"NY","lat":"40.7276820090652","long":"-73.9857361176058"},{"street":"208 West 13th Street","name":"Lesbian, Gay, Bi-Sexual &amp; Transgender Community Center","city":"New York","state":"NY","lat":"40.7381228","long":"-74.0010304"},{"street":"51 East 25th Street","name":"Intercare","city":"New York","state":"NY","lat":"40.7419488","long":"-73.9861549"},{"street":"155 East 22nd Street","name":"Gustavus Adolphus Church","city":"New York","state":"NY","lat":"40.7384244","long":"-73.9840055"},{"street":"7 East 10th Street","name":"Bronfman Center","city":"New York","state":"NY","lat":"40.7332068","long":"-73.9946888"},{"street":"315 West 22nd Street","name":"German Evangelist Lutheran Church of St. Paul","city":"New York","state":"NY","lat":"40.7450587","long":"-73.9997029"},{"street":"15 Rutherford Place","name":"Friends Meeting House","city":"New York","state":"NY","lat":"40.7337834","long":"-73.985098"},{"street":"25 East 15th- Conference Room H","name":"The Realization Center","city":"New York","state":"NY","lat":"40.7361047","long":"-73.9914936"},{"street":"175 9th Avenue","name":"General Theological Seminary","city":"New York","state":"NY","lat":"40.6717748","long":"-73.9913909"},{"street":"19 Union Square West","name":"The Realization Center","city":"New York","state":"NY","lat":"40.7360864","long":"-73.9912277"},{"street":"155 East 22nd Street","name":"Gustavus Adolphus Church","city":"New York","state":"NY","lat":"40.7384244","long":"-73.9840055"},{"street":"423 East 23rd Street","name":"Veterans Administration Hospital","city":"New York","state":"NY","lat":"40.7368113","long":"-73.9772015"},{"street":"209 East 16th Street","name":"St. George&apos;s Church","city":"New York","state":"NY","lat":"40.6452634","long":"-73.9641398"},{"street":"411 East 12th Street","name":"","city":"New York","state":"NY","lat":"40.729824","long":"-73.982816"},{"street":"209 East 16th Street","name":"St. George&apos;s Church","city":"New York","state":"NY","lat":"40.6452634","long":"-73.9641398"},{"street":"239 East 21st Street","name":"Epiphany Roman Catholic Church","city":"New York","state":"NY","lat":"40.7369141","long":"-73.9823276"},{"street":"12 West 12th Street","name":"First Presbyterian Church","city":"New York","state":"NY","lat":"40.7348062","long":"-73.9951634"},{"street":"44 2nd Avenue","name":"Church of the Nativity","city":"New York","state":"NY","lat":"40.7251086","long":"-73.9899858"},{"street":"208 West 13th Street","name":"Lesbian, Gay, Bi-Sexual &amp; Transgender Community Center","city":"New York","state":"NY","lat":"40.7381228","long":"-74.0010304"},{"street":"12 West 11th Street","name":"Church of the Ascension Parish House","city":"New York","state":"NY","lat":"40.7341868","long":"-73.9957178"},{"street":"116 West 11th Street","name":"PS 41 Elementary School","city":"New York","state":"NY","lat":"40.7355598","long":"-73.9990141"},{"street":"80 5th Avenue","name":"","city":"New York","state":"NY","lat":"40.7358709","long":"-73.9939317"},{"street":"116 W. 11th Street","name":"P.S. 41 (see footnote re: temp location)","city":"New York","state":"NY","lat":"40.7355598","long":"-73.9990141"},{"street":"155 East 22nd Street","name":"Gustavus Adolphus Church","city":"New York","state":"NY","lat":"40.7384244","long":"-73.9840055"},{"street":"319 Eastr 24th Street","name":"East Midtown Plaza (Community Room H)","city":"New York","state":"NY","lat":"40.6639307188879","long":"-73.9382749875207"},{"street":"10 East Union Square","name":"Beth Israel Hospital @ Karpas Cancer Center Library","city":"New York","state":"NY","lat":"40.7348335","long":"-73.9897815"},{"street":"206-208 East 11th Street","name":"All Saints Ukrainian Orthodox Church","city":"New York","state":"NY","lat":"40.6639307188879","long":"-73.9382749875207"},{"street":"123 East 15th Street","name":"Seafarers &amp; International House","city":"New York","state":"NY","lat":"40.7346341","long":"-73.9879773"},{"street":"411 East 12th Street","name":"","city":"New York","state":"NY","lat":"40.729824","long":"-73.982816"},{"street":"125 West 14th Street","name":"McBurney YMCA","city":"New York","state":"NY","lat":"40.7379244","long":"-73.9976813"},{"street":"208 West 13th Street","name":"LGBT Community Center","city":"New York","state":"NY","lat":"40.7381228","long":"-74.0010304"},{"street":"10 Union Square East","name":"Beth Israel Phillips Ambulatory Center","city":"New York","state":"NY","lat":"40.7348335","long":"-73.9897815"},{"street":"155 West 22nd Street","name":"St. Francis Residence","city":"New York","state":"NY","lat":"40.7431787","long":"-73.9952777"},{"street":"208 West 13th Street","name":"Lesbian, Gay, Bi-Sexual &amp; Transgender Community Center","city":"New York","state":"NY","lat":"40.7381228","long":"-74.0010304"},{"street":"12 West 12th Street","name":"First Presbyterian Church","city":"New York","state":"NY","lat":"40.7348062","long":"-73.9951634"},{"street":"20 Washington Square North","name":"The Caring Community","city":"New York","state":"NY","lat":"40.7319436","long":"-73.9977667"},{"street":"344 East 14th Street","name":"14th Street Y","city":"New York","state":"NY","lat":"40.7314102","long":"-73.9832013"},{"street":"155 West 22nd Street","name":"St. Francis Residence","city":"New York","state":"NY","lat":"40.7431787","long":"-73.9952777"},{"street":"208 West 13th Street","name":"Lesbian, Gay, Bi-Sexual &amp; Transgender Community Center","city":"New York","state":"NY","lat":"40.7381228","long":"-74.0010304"},{"street":"602 East 9th Street","name":"Trinity Lutheran Church","city":"New York","state":"NY","lat":"40.7260409","long":"-73.9800393"},{"street":"208 West 13th Street","name":"Gay, Lesbian, Bi-Sexual &amp; Transgender Community Center","city":"New York","state":"NY","lat":"40.7381228","long":"-74.0010304"},{"street":"208 West 13th Street","name":"Lesbian, Gay, Bi-Sexual &amp; Transgender Community Center","city":"New York","state":"NY","lat":"40.7381228","long":"-74.0010304"},{"street":"19 Union Square West","name":"Realization Center","city":"New York","state":"NY","lat":"40.7360864","long":"-73.9912277"},{"street":"173 East 3rd Street- basement","name":"Most Holy Redeemer Church","city":"New York","state":"NY","lat":"40.7233431","long":"-73.9843062"},{"street":"50 East 7th Street","name":"Middle Collegiate Church ","city":"New York","state":"NY","lat":"40.6519369","long":"-73.9750389"}]