[{"street":"252 West 46th Street","name":"46th Street Club House","city":"New York","state":"NY","lat":"40.7593831","long":"-73.9872329"},{"street":"303 West 42nd Street","name":"","city":"New York","state":"NY","lat":"40.7575385","long":"-73.9901368"},{"street":"303 West 42nd Street","name":"","city":"New York","state":"NY","lat":"40.7575385","long":"-73.9901368"},{"street":"305 7th Avenue","name":"S.A.G.E.","city":"New York","state":"NY","lat":"40.7467107","long":"-73.9935208"},{"street":"1 West 53rd Street","name":"Saint Thomas Church","city":"New York","state":"NY","lat":"40.7608523","long":"-73.9765938"},{"street":"303 West 42nd Street","name":"","city":"New York","state":"NY","lat":"40.7575385","long":"-73.9901368"},{"street":"133 West 46th Street","name":"St. Mary the Virgin Church","city":"New York","state":"NY","lat":"40.6589343","long":"-73.9348705"},{"street":"441 West 26th Street","name":"Hudson Guild","city":"New York","state":"NY","lat":"40.7495486","long":"-74.0015106"},{"street":"446 West 33rd Street","name":"GMHC","city":"New York","state":"NY","lat":"40.753496","long":"-73.9989428"},{"street":"252 West 46th Street","name":"46th Street Clubhouse","city":"New York","state":"NY","lat":"40.7593831","long":"-73.9872329"},{"street":"252 West 46th Street","name":"46th Street Club House","city":"New York","state":"NY","lat":"40.7593831","long":"-73.9872329"},{"street":"252 West 46th Street","name":"46th Street Club House","city":"New York","state":"NY","lat":"40.7593831","long":"-73.9872329"},{"street":"339 West 47th Street","name":"The Actor&apos;s Temple","city":"New York","state":"NY","lat":"40.7612077","long":"-73.9891128"},{"street":"303 West 42nd St Rm 306","name":"","city":"New York","state":"NY","lat":"40.7575385","long":"-73.9901368"},{"street":"139 West 31st Street","name":"St. Francis of Assisi Education Center","city":"New York","state":"NY","lat":"40.647412","long":"-73.9480599"},{"street":"422 West 57th Street","name":"Trinity Presbyterian Church","city":"New York","state":"NY","lat":"40.7682311","long":"-73.9868768"},{"street":"211 West 30th Street","name":"St. John&apos;s Hall","city":"New York","state":"NY","lat":"40.7486793956479","long":"-73.9927286472649"},{"street":"252 West 46th Street","name":"46th Street Club House","city":"New York","state":"NY","lat":"40.7593831","long":"-73.9872329"},{"street":"1 West 53rd Street","name":"St. Thomas Church","city":"New York","state":"NY","lat":"40.7608523","long":"-73.9765938"},{"street":"422 West 57th Street","name":"Trinity Presbyterian Church","city":"New York","state":"NY","lat":"40.7682311","long":"-73.9868768"},{"street":"7 West 55th Street","name":"Fifth Av Presbyterian Church","city":"New York","state":"NY","lat":"40.7618823","long":"-73.9751297"},{"street":"252 West 46th Street","name":"46th Street Club House","city":"New York","state":"NY","lat":"40.7593831","long":"-73.9872329"},{"street":"729 7th Avenue","name":"The Actors Fund of America","city":"New York","state":"NY","lat":"40.7601119","long":"-73.9837538"},{"street":"538 West 47th Street","name":"Apartment Building","city":"New York","state":"NY","lat":"40.7634021","long":"-73.9948352"},{"street":"1000 Tenth Avenue","name":"Mount Sinai - Roosevelt Hospital","city":"New York","state":"NY","lat":"40.7700536177104","long":"-73.9877635987168"},{"street":"303 West 42nd Street","name":"","city":"New York","state":"NY","lat":"40.7575385","long":"-73.9901368"},{"street":"252 West 46th Street","name":"46th Street Club House","city":"New York","state":"NY","lat":"40.7593831","long":"-73.9872329"},{"street":"307 West 26th Street","name":"Upright Citizens Brigade Theatre","city":"New York","state":"NY","lat":"40.7474685","long":"-73.9974137"},{"street":"405 West 59th Street","name":"St. Paul&apos;s Episcopal Parish House","city":"New York","state":"NY","lat":"40.7697538","long":"-73.9857965"},{"street":"303 West 42nd Street","name":"","city":"New York","state":"NY","lat":"40.7575385","long":"-73.9901368"},{"street":"422 W. 57th St.","name":"Trinity Presbyterian Church ","city":"New York","state":"NY","lat":"40.7682311","long":"-73.9868768"},{"street":"133 West 46th Street","name":"St. Mary the Virgin Church","city":"New York","state":"NY","lat":"40.6589343","long":"-73.9348705"},{"street":"133 West 46th Street","name":"St. Mary the Virgin Church","city":"New York","state":"NY","lat":"40.6589343","long":"-73.9348705"},{"street":"303 West 42nd Street","name":"","city":"New York","state":"NY","lat":"40.7575385","long":"-73.9901368"},{"street":"296 9th Avenue","name":"Holy Apostles Church Rectory","city":"New York","state":"NY","lat":"40.7493642017494","long":"-73.9991233310954"},{"street":"139 West 31st Street","name":"St. Francis of Assisi Center","city":"New York","state":"NY","lat":"40.647412","long":"-73.9480599"},{"street":"1 West 53rd Street","name":"St. Thomas Church","city":"New York","state":"NY","lat":"40.7608523","long":"-73.9765938"},{"street":"484 West 43rd Street","name":"Manhattan Plaza Health Club","city":"New York","state":"NY","lat":"40.7599913","long":"-73.9948326"},{"street":"7 West 55th Street","name":"Fifth Av Presbyterian Church","city":"New York","state":"NY","lat":"40.7618823","long":"-73.9751297"},{"street":"252 West 46th Street","name":"46th Street Club House","city":"New York","state":"NY","lat":"40.7593831","long":"-73.9872329"},{"street":"252 West 46th Street","name":"46th Street Club House","city":"New York","state":"NY","lat":"40.7593831","long":"-73.9872329"},{"street":"4 West 43rd Street","name":"The Learning Center","city":"New York","state":"NY","lat":"40.7543885","long":"-73.9812083"},{"street":"252 West 46th Street","name":"46th Street Club House","city":"New York","state":"NY","lat":"40.7593831","long":"-73.9872329"},{"street":"296 Ninth Avenue","name":"Church of The Holy Apostles","city":"New York","state":"NY","lat":"40.8228042471098","long":"-73.8091987304391"},{"street":"1 West 53rd Street","name":"St. Thomas Church Parish House","city":"New York","state":"NY","lat":"40.7608523","long":"-73.9765938"},{"street":"210 West 31st Street","name":"St. John the Baptist Church","city":"New York","state":"NY","lat":"40.6456042","long":"-73.9481792"},{"street":"422 West 57th Street","name":"Trinity Presbyterian Church","city":"New York","state":"NY","lat":"40.7682311","long":"-73.9868768"},{"street":"252 West 46th Street","name":"46th Street Club House","city":"New York","state":"NY","lat":"40.7593831","long":"-73.9872329"},{"street":"134 West 29th Street - 2nd floor Studio 203","name":"","city":"New York","state":"NY","lat":"40.7472463","long":"-73.9917061"},{"street":"1000 Tenth Avenue","name":"Mount Sinai - Roosevelt Hospital","city":"New York","state":"NY","lat":"40.7700536177104","long":"-73.9877635987168"},{"street":"446 West 33rd Street","name":"GMHC","city":"New York","state":"NY","lat":"40.753496","long":"-73.9989428"},{"street":"423 West 46th Street","name":"St. Clements Church","city":"New York","state":"NY","lat":"40.6483729","long":"-74.009462"},{"street":"252 West 46th Street","name":"46th Street Club House","city":"New York","state":"NY","lat":"40.7593831","long":"-73.9872329"}]