[{"street":"122 East 37th Street","name":"","city":"New York","state":"NY","lat":"40.7483929","long":"-73.9787906"},{"street":"30 East 35th Street","name":"","city":"New York","state":"NY","lat":"40.7496221","long":"-73.9855348"},{"street":"350 East 56th Street","name":"Cathedral High School","city":"New York","state":"NY","lat":"40.757654","long":"-73.963834"},{"street":"619 Lexington Avenue","name":"St. Peter&apos;s Lutheran Church @ Citicorp Center","city":"New York","state":"NY","lat":"40.7588016","long":"-73.9704542"},{"street":"122 East 37th Street","name":"","city":"New York","state":"NY","lat":"40.7483929","long":"-73.9787906"},{"street":"28 East 35th Street","name":"J.H. Holmes Community House","city":"New York","state":"NY","lat":"40.7496065","long":"-73.9854965"},{"street":"350 East 56th Street ","name":"Cathedral High School ","city":"New York","state":"NY","lat":"40.757654","long":"-73.963834"},{"street":"283 Lexington Avenue","name":"Soldiers, Sailors, Marines &amp; Airmen&apos;s Club","city":"New York","state":"NY","lat":"40.7479969","long":"-73.9783809"},{"street":"122 East 37th Street","name":"","city":"New York","state":"NY","lat":"40.7483929","long":"-73.9787906"},{"street":"619 Lexington Avenue","name":"St. Peter&apos;s Lutheran Church @ CitiCorp Center","city":"New York","state":"NY","lat":"40.6894374","long":"-73.9367705"},{"street":"141 East 43rd Street","name":"Saint Agnes Church","city":"New York","state":"NY","lat":"40.7518754","long":"-73.9747248"},{"street":"122 E 37TH St.","name":"MUSTARD SEED","city":"New York","state":"NY","lat":"40.7483929","long":"-73.9787906"},{"street":"122 East 37th Street","name":"Mustard Seed","city":"New York","state":"NY","lat":"40.7483929","long":"-73.9787906"},{"street":"141 East 43rd Street","name":"St. Agnes Church","city":"New York","state":"NY","lat":"40.7518754","long":"-73.9747248"},{"street":"209 Madison Avenue","name":"Church of the Incarnation","city":"New York","state":"NY","lat":"40.7486487","long":"-73.9821254"},{"street":"122 East 37th Street","name":"","city":"New York","state":"NY","lat":"40.7483929","long":"-73.9787906"},{"street":"619 Lexington Avenue","name":"St. Peter&apos;s Lutheran Church @ CitiCorp Center","city":"New York","state":"NY","lat":"40.6894374","long":"-73.9367705"},{"street":"240 East 31st Street","name":"Church of the Good Shepherd","city":"New York","state":"NY","lat":"40.7430963","long":"-73.9780494"},{"street":"114 East 35th Street","name":"The New York New Church","city":"New York","state":"NY","lat":"40.7473169","long":"-73.9800724"},{"street":"230 East 60th Street (Basement) ","name":"ALL SAINTS CHURCH","city":"New York","state":"NY","lat":"40.7615607","long":"-73.9649474"},{"street":"244 East 58th Street","name":"Caron Foundation","city":"New York","state":"NY","lat":"40.7600925","long":"-73.9653811"},{"street":"619 Lexington Avenue","name":"St. Peter&apos;s Lutheran Church @ CitiCorp Center","city":"New York","state":"NY","lat":"40.7588016","long":"-73.9704542"},{"street":"325 Park Avenue","name":"St. Bartholomew&apos;s Church","city":"New York","state":"NY","lat":"40.7574552","long":"-73.9733937"},{"street":"236 EAST 31st STREET ","name":"CHURCH OF THE GOOD SHEPARD","city":"New York","state":"NY","lat":"40.74314","long":"-73.9781525"},{"street":"308 East 55th Street","name":"Conservative Synagogue","city":"New York","state":"NY","lat":"40.7576943","long":"-73.9657436"},{"street":"244 East 58th Street","name":"The Caron Foundation","city":"New York","state":"NY","lat":"40.6492925","long":"-73.9225408"},{"street":"244 East 58th Street","name":"Caron Foundation","city":"New York","state":"NY","lat":"40.6492925","long":"-73.9225408"},{"street":"109 East 50th Street","name":"","city":"New York","state":"NY","lat":"40.7569178","long":"-73.97309"}]