[{"street":"351 East 74th Street","name":"Jan Hus Church","city":"New York","state":"NY","lat":"40.7694194","long":"-73.9555151"},{"street":"48 East 80th Street","name":"Manhattan Church of Christ","city":"New York","state":"NY","lat":"40.7767263","long":"-73.9612366"},{"street":"184 East 76th Street","name":"St. Jean Baptiste Church","city":"New York","state":"NY","lat":"40.7729024777959","long":"-73.960301601538"},{"street":"351 East 74th Street","name":"Jan Hus Church","city":"New York","state":"NY","lat":"40.7694194","long":"-73.9555151"},{"street":"1393 York Avenue","name":"Church of the Epiphany","city":"New York","state":"NY","lat":"40.768415","long":"-73.9528341"},{"street":"520 Park Avenue","name":"Christ United Methodist Church","city":"New York","state":"NY","lat":"40.7639426","long":"-73.9700429"},{"street":"337 E. 74th St.","name":"Archdiocian Cathedral of the Holy Trinity","city":"New York","state":"NY","lat":"40.7696836","long":"-73.9561119"},{"street":"1157 Lexington Avenue","name":"All Souls Church","city":"New York","state":"NY","lat":"40.7754455","long":"-73.9583638"},{"street":"420 East 76th Street","name":"Gracie Square Hospital","city":"New York","state":"NY","lat":"40.7697705","long":"-73.9529077"},{"street":"230 East 90th Street","name":"Our Lady of Good Counsel Church","city":"New York","state":"NY","lat":"40.780841","long":"-73.9510956"},{"street":"65 East 89th Street","name":"St. Thomas More Church","city":"New York","state":"NY","lat":"40.78259","long":"-73.9566571"},{"street":"865 Madison Avenue","name":"St. James Episcopal Church","city":"New York","state":"NY","lat":"40.7713251","long":"-73.9655852"},{"street":"1296 Lexington Avenue","name":"Immanuel Lutheran Church","city":"New York","state":"NY","lat":"40.780135833909","long":"-73.9552304898083"},{"street":"351 East 74th Street","name":"Jan Hus Church","city":"New York","state":"NY","lat":"40.7694194","long":"-73.9555151"},{"street":"1157 Lexington Avenue","name":"All Souls Uniterian Church","city":"New York","state":"NY","lat":"40.7754455","long":"-73.9583638"},{"street":"351 East 74th Street","name":"Jan Hus Church","city":"New York","state":"NY","lat":"40.7694194","long":"-73.9555151"},{"street":"351 East 74th Street","name":"Jan Hus Church","city":"New York","state":"NY","lat":"40.7694194","long":"-73.9555151"},{"street":"65 East 89th Street","name":"St. Thomas More Church Rectory","city":"New York","state":"NY","lat":"40.78259","long":"-73.9566571"},{"street":"65 East 89th Street - Rectory basement","name":"Church of Saint Thomas Moore","city":"New York","state":"NY","lat":"40.78259","long":"-73.9566571"},{"street":"351 East 74th Street","name":"Jan Hus Church","city":"New York","state":"NY","lat":"40.7694194","long":"-73.9555151"},{"street":"135 East 96th Street","name":"St. Francis de Sales Church","city":"New York","state":"NY","lat":"40.7862757","long":"-73.951491"},{"street":"351 East 74th Street","name":"Jan Hus Presbyterian Church","city":"New York","state":"NY","lat":"40.7694194","long":"-73.9555151"},{"street":"2 East 90th Street","name":"Church of the Heavenly Rest","city":"New York","state":"NY","lat":"40.7836928","long":"-73.9578694"},{"street":"1157 Lexington Avenue","name":"All Souls Uniterian Church","city":"New York","state":"NY","lat":"40.7754455","long":"-73.9583638"},{"street":"420 East 76th Street","name":"Gracie Square Hospital","city":"New York","state":"NY","lat":"40.7697705","long":"-73.9529077"},{"street":"351 East 74th Street","name":"Jan Hus Presbyterian Church","city":"New York","state":"NY","lat":"40.7694194","long":"-73.9555151"},{"street":"351 East 74th Street","name":"Jan Hus Church","city":"New York","state":"NY","lat":"40.7694194","long":"-73.9555151"},{"street":"1285 Madison Avenue","name":"Philomathist Center","city":"New York","state":"NY","lat":"40.7843189","long":"-73.9560924"},{"street":"48 East 84th Street","name":"St. Ignatius Loyola School","city":"New York","state":"NY","lat":"40.7790604","long":"-73.9588788"},{"street":"408 East 82nd Street","name":"St. Stephen of Hungary Church","city":"New York","state":"NY","lat":"40.7738528","long":"-73.9504699"},{"street":"351 East 74th Street","name":"Jan Hus Church","city":"New York","state":"NY","lat":"40.7694194","long":"-73.9555151"},{"street":"351 East 74th Street","name":"Jan Hus Church","city":"New York","state":"NY","lat":"40.7694194","long":"-73.9555151"},{"street":"125 East 85th Street","name":"Congregational Kehilath Jeshurun","city":"New York","state":"NY","lat":"40.7790514","long":"-73.956386"},{"street":"351 East 74th Street","name":"Jan Hus Church","city":"New York","state":"NY","lat":"40.7694194","long":"-73.9555151"},{"street":"351 East 74th Street","name":"Jan Hus Church","city":"New York","state":"NY","lat":"40.7694194","long":"-73.9555151"},{"street":"865 Madison Avenue","name":"St. James Church","city":"New York","state":"NY","lat":"40.7713251","long":"-73.9655852"},{"street":"62 East 92nd Street","name":"Brick Church Parish House","city":"New York","state":"NY","lat":"40.7842393","long":"-73.955258"},{"street":"351 East 74th Street","name":"Jan Hus Church","city":"New York","state":"NY","lat":"40.7694194","long":"-73.9555151"},{"street":"420 East 87th Street","name":"St. Joseph&apos;s School","city":"New York","state":"NY","lat":"40.7770465","long":"-73.9479432"},{"street":"593 Park Avenue","name":"Central Presbyterian Church","city":"New York","state":"NY","lat":"40.765841","long":"-73.9673386"},{"street":"65 East 89th Street","name":"St. Thomas More Church","city":"New York","state":"NY","lat":"40.78259","long":"-73.9566571"},{"street":"865 Madison Avenue","name":"St. James Episcopal Church","city":"New York","state":"NY","lat":"40.7713251","long":"-73.9655852"},{"street":"Church of the Good Shepard","name":"","city":"New York","state":"NY","lat":"40.6639307188879","long":"-73.9382749875207"},{"street":"413 East 79th Street","name":"St. Monica&apos;s Church","city":"New York","state":"NY","lat":"40.7721222","long":"-73.9517608"},{"street":"351 East 74th Street","name":"Jan Hus Church","city":"New York","state":"NY","lat":"40.7694194","long":"-73.9555151"},{"street":"310 East 67th Street","name":"New York Blood Center","city":"New York","state":"NY","lat":"40.7651821","long":"-73.9599207"},{"street":"331 E 70th St","name":"Lenox Hill Neighborhood House","city":"New York","state":"NY","lat":"40.766948","long":"-73.9577722"},{"street":"411 East 68th Street","name":"Church of St. Catherine of Siena","city":"New York","state":"NY","lat":"40.7651081","long":"-73.957215"},{"street":"2 East 90th Street","name":"Church of the Heavenly Rest","city":"New York","state":"NY","lat":"40.7836928","long":"-73.9578694"},{"street":"341 East 87th Street","name":"Holy Trinity Church","city":"New York","state":"NY","lat":"40.7780211","long":"-73.9497263"},{"street":"351 East 74th Street","name":"Jan Hus Church","city":"New York","state":"NY","lat":"40.7694194","long":"-73.9555151"},{"street":"351 East 74th Street","name":"Jan Hus Church","city":"New York","state":"NY","lat":"40.7694194","long":"-73.9555151"},{"street":"351 East 74th Street","name":"Jan Hus Church","city":"New York","state":"NY","lat":"40.7694194","long":"-73.9555151"}]