[{"street":"273 Bowery","name":"University Settlement","city":"New York","state":"NY","lat":"40.7236736","long":"-73.9924832"},{"street":"232 West 11th Street","name":"Manhattan Seventh-Day Adventist Church","city":"New York","state":"NY","lat":"40.736193","long":"-74.0028632"},{"street":"283 West Broadway","name":"Hazelden Center","city":"New York","state":"NY","lat":"40.6344072","long":"-74.1170382"},{"street":"232 W. 11th Street","name":"Seventh Day Adventist Church","city":"New York","state":"NY","lat":"40.736193","long":"-74.0028632"},{"street":"220 West Houston Street","name":"","city":"New York","state":"NY","lat":"40.7286385","long":"-74.0045871"},{"street":"253 Center Street","name":"Golden Bridge Yoga Center","city":"New York","state":"NY","lat":"40.7206323","long":"-73.9979756"},{"street":"273 Bowery","name":"University Settlement (The Chinatown YMCA)","city":"New York","state":"NY","lat":"40.7236736","long":"-73.9924832"},{"street":"487 Hudson Street","name":"St. Luke&apos;s Episcopal School","city":"New York","state":"NY","lat":"40.7326","long":"-74.0067"},{"street":"292 Henry Street","name":"St. Augustine&apos;s Church","city":"New York","state":"NY","lat":"40.7137143","long":"-73.983033"},{"street":"232 West 11th Street","name":"Manhattan Church of The Seventh-day Adventist","city":"New York","state":"NY","lat":"40.736193","long":"-74.0028632"},{"street":"141 Henry Street","name":"Church of Saint Theresa Rectory","city":"New York","state":"NY","lat":"40.6964191","long":"-73.9933777"},{"street":"220 West Houston Street","name":"","city":"New York","state":"NY","lat":"40.7286385","long":"-74.0045871"},{"street":"83 Christopher Street (Red Door","name":"St. John&apos;s Lutheran Church","city":"New York","state":"NY","lat":"40.7335702","long":"-74.0037456"},{"street":"50 Perry Street","name":"","city":"New York","state":"NY","lat":"40.7354854","long":"-74.0031569"},{"street":"232 West 11th Street","name":"Seventh Day Adventist Church","city":"New York","state":"NY","lat":"40.736193","long":"-74.0028632"},{"street":"224 Waverly Place","name":"St. John&apos;s Episcopal Church","city":"New York","state":"NY","lat":"40.7360657","long":"-74.0019452"},{"street":"154 Sullivan Street","name":"St. Anthony&apos;s of Padua","city":"New York","state":"NY","lat":"40.6793249","long":"-74.0142651"},{"street":"273 Bowery Street","name":"Chinatown YMCA","city":"New York","state":"NY","lat":"40.7236736","long":"-73.9924832"},{"street":"371 6th Avenue","name":"St. Joseph&apos;s Church","city":"New York","state":"NY","lat":"40.6701581","long":"-73.9819879"},{"street":"155 Sullivan Street","name":"St. Anthony of Padua Church","city":"New York","state":"NY","lat":"40.6792556","long":"-74.0145369"},{"street":"7 East 10th Strert","name":"The Bronfman Cernter @ NYU","city":"New York","state":"NY","lat":"40.7332068","long":"-73.9946888"},{"street":"232 West 11th Street","name":"Seventh Adventist Church","city":"New York","state":"NY","lat":"40.736193","long":"-74.0028632"},{"street":"81 Christopher Street","name":"St. John&apos;s Lutheran Church","city":"New York","state":"NY","lat":"40.6367254","long":"-74.1643744"},{"street":"273 Bowery","name":"University Settlement (The Chinatown YMCA)","city":"New York","state":"NY","lat":"40.7236736","long":"-73.9924832"},{"street":"232 West 11th Street","name":"Manhattan Seventh-Day Adventist Church","city":"New York","state":"NY","lat":"40.736193","long":"-74.0028632"},{"street":"232 West 11th Street","name":"Manhattan Church of The Seventh-day Adventist","city":"New York","state":"NY","lat":"40.736193","long":"-74.0028632"},{"street":"83 Christopher Street","name":"St. John&apos;s Lutheran Church","city":"New York","state":"NY","lat":"40.7335702","long":"-74.0037456"},{"street":"220 West Houston Street","name":"","city":"New York","state":"NY","lat":"40.7286385","long":"-74.0045871"},{"street":"273 Bowery","name":"University Settlement @ Houston Street Center","city":"New York","state":"NY","lat":"40.7236736","long":"-73.9924832"}]