[{"street":"701 West 168th Street @ Fort Washington Avenue","name":"Columbia Presbyterian Hospital","city":"New York","state":"NY","lat":"40.8424566","long":"-73.9424508"},{"street":"715 West 179th Street","name":"Holy Rood Church","city":"New York","state":"NY","lat":"40.8492702","long":"-73.9382266"},{"street":"715 West 179th Street","name":"Holy Rood Church","city":"New York","state":"NY","lat":"40.8492702","long":"-73.9382266"},{"street":"431 West 204th Street","name":"St. Jude&apos;s School","city":"New York","state":"NY","lat":"40.8620966104922","long":"-73.9190004613749"},{"street":"550 West 155th Street","name":"Church of the Intercession","city":"New York","state":"NY","lat":"40.8321897","long":"-73.945059"},{"street":"557 West 156th Street","name":"Casita Esperanza","city":"New York","state":"NY","lat":"40.8333254","long":"-73.9446563"},{"street":"35 Thayer Street","name":"","city":"New York","state":"NY","lat":"40.8626147","long":"-73.9263819"},{"street":"715 West 179th Street","name":"Episcopal Holy Rood Church","city":"New York","state":"NY","lat":"40.8492702","long":"-73.9382266"},{"street":"502 West165th Street","name":"Church Santa Rosa de Lima","city":"New York","state":"NY","lat":"40.6639307188879","long":"-73.9382749875207"},{"street":"91 Arden Street","name":"Our Lady Queen of Martyrs","city":"New York","state":"NY","lat":"40.8639073","long":"-73.9282532"},{"street":"20 Cumming Street","name":"Holy Trinity Episcopal Church","city":"New York","state":"NY","lat":"40.8664723","long":"-73.9264521"},{"street":"84 Vermilyea Avenue","name":"Mount Washington Presbyterian Church","city":"New York","state":"NY","lat":"40.86596","long":"-73.9231447"},{"street":"620 Isham Street","name":"Church of the Good Shepherd","city":"New York","state":"NY","lat":"40.8692449","long":"-73.9206611"},{"street":"2005 Amsterdam Avenue","name":"COATHA Church on the Hill Senior Center","city":"New York","state":"NY","lat":"40.8342553","long":"-73.9407968"},{"street":"178 Bennett Avenue","name":"Our Saviour&apos;s Atonement Lutheran Church","city":"New York","state":"NY","lat":"40.8560069","long":"-73.9342762"},{"street":"178 Bennett Avenue","name":"Our Saviour&apos;s Atonement Church","city":"New York","state":"NY","lat":"40.8560069","long":"-73.9342762"},{"street":"91 Arden Street","name":"Our Lady Queen of Martyrs","city":"New York","state":"NY","lat":"40.8639073","long":"-73.9282532"},{"street":"20 Cummings Street","name":"Holy Trinity Church","city":"New York","state":"NY","lat":"40.8664723","long":"-73.9264521"},{"street":"715 West 179th Street","name":"Holy Rood Church","city":"New York","state":"NY","lat":"40.8492702","long":"-73.9382266"},{"street":"189th Street &amp; Bennett Avenue","name":"Cornerstone Center","city":"New York","state":"NY","lat":"40.6639307188879","long":"-73.9382749875207"},{"street":"178 Bennett Avenue","name":"The Corner Stone Center","city":"New York","state":"NY","lat":"40.8560069","long":"-73.9342762"},{"street":"178 Bennett Avenue","name":"Cornerstone Center","city":"New York","state":"NY","lat":"40.8560069","long":"-73.9342762"}]