[{"street":"109 West 129th Street","name":"SRO Building","city":"New York","state":"NY","lat":"40.8106798","long":"-73.944244"},{"street":"240 West 145th Street","name":"Union Baptist Church","city":"New York","state":"NY","lat":"40.8222189","long":"-73.9408621"},{"street":"469 West 142nd Street","name":"Our Lady of Lourdes Church","city":"New York","state":"NY","lat":"40.8232166","long":"-73.9484769"},{"street":"204 West 134th Street","name":"St. Phillip Church","city":"New York","state":"NY","lat":"40.8147959","long":"-73.9448542"},{"street":"2044 Adam Clayton Powell Blvd.","name":"Spiritual Renewal Church","city":"New York","state":"NY","lat":"40.8072583","long":"-73.9499047"},{"street":"469 West 142nd Street","name":"","city":"New York","state":"NY","lat":"40.8232166","long":"-73.9484769"},{"street":"521 W 126th St","name":"St. Mary&apos;s Episcopal","city":"New York","state":"NY","lat":"40.8148408","long":"-73.9561515"},{"street":"109 West 129th Street","name":"SRO Building Community Room","city":"New York","state":"NY","lat":"40.8106798","long":"-73.944244"},{"street":"469 West 142nd Street","name":"Our Lady of Lourdes","city":"New York","state":"NY","lat":"40.8232166","long":"-73.9484769"},{"street":"2044 Seventh Avenue","name":"","city":"New York","state":"NY","lat":"40.8071759186691","long":"-73.9497519327616"},{"street":"127 West 127th Street","name":"S.A.G.E.","city":"New York","state":"NY","lat":"40.8095378","long":"-73.9453852"},{"street":"310 West 139th Street","name":"Grace Congregational Baptist Church","city":"New York","state":"NY","lat":"40.8192096","long":"-73.9453784"},{"street":"409 West 141st Street","name":"St. James Church","city":"New York","state":"NY","lat":"40.8215113","long":"-73.9463991"},{"street":"91 Claremont Avenue","name":"Riverside Church","city":"New York","state":"NY","lat":"40.8119559","long":"-73.9625116"},{"street":"1727 Amsterdam Avenue","name":"Upper Manhattan Mental Health Center","city":"New York","state":"NY","lat":"40.8255289","long":"-73.9471616"},{"street":"469 West 142nd Street","name":"Our Lady of Lourdes Church","city":"New York","state":"NY","lat":"40.8232166","long":"-73.9484769"},{"street":"91 Claremont Avenue","name":"Riverside Church","city":"New York","state":"NY","lat":"40.8119559","long":"-73.9625116"},{"street":"219 West 132nd Street","name":"St. Aloysius School","city":"New York","state":"NY","lat":"40.8138548","long":"-73.9459315"},{"street":"211 West 129th Street","name":"Salem United Methodist Church Community Center","city":"New York","state":"NY","lat":"40.8119105","long":"-73.9471217"},{"street":"425 West 144th Street","name":"Convent Baptist Church Education Building","city":"New York","state":"NY","lat":"40.8238524","long":"-73.9461167"},{"street":"204 West 134th Street","name":"St. Phillip&apos;s Church","city":"New York","state":"NY","lat":"40.8147959","long":"-73.9448542"},{"street":"506 Lenox Avenue","name":"Harlem Hospital King Pavilion","city":"New York","state":"NY","lat":"40.8143457","long":"-73.9403066"},{"street":"1727 Amsterdam Avenue","name":"Council Center for Problems of Living","city":"New York","state":"NY","lat":"40.8255289","long":"-73.9471616"},{"street":"1854 Amsterdam Avenue","name":"","city":"New York","state":"NY","lat":"40.8295902","long":"-73.9446541"},{"street":"469 West 142nd Street","name":"Our Lady of Lourdes Church","city":"New York","state":"NY","lat":"40.8232166","long":"-73.9484769"},{"street":"58-66 West 135th Street","name":"Metropolitan AME Church","city":"New York","state":"NY","lat":"40.6639307188879","long":"-73.9382749875207"}]