[{"street":"20 Cardinal Hayes Place","name":"St Andrews Church","city":"New York","state":"NY","lat":"40.7132514","long":"-74.002398"},{"street":"20 Cardinal Hayes Place","name":"St. Andrew&apos;s Church","city":"New York","state":"NY","lat":"40.7132514","long":"-74.002398"},{"street":"29 Mott Street","name":"Church of the Transfiguration","city":"New York","state":"NY","lat":"40.7147965","long":"-73.9990363"},{"street":"49 Fulton Street","name":"St. Margaret&apos;s Residence","city":"New York","state":"NY","lat":"40.7080393","long":"-74.0042361"},{"street":"44 John Street","name":"","city":"New York","state":"NY","lat":"40.7091732","long":"-74.0080677"},{"street":"49 Fulton Street","name":"","city":"New York","state":"NY","lat":"40.7080393","long":"-74.0042361"},{"street":"20 Cardinal Hayes Place","name":"St. Andrew&apos;s Church","city":"New York","state":"NY","lat":"40.7132514","long":"-74.002398"},{"street":"22 Barclay Street","name":"St. Peter&apos;s Church","city":"New York","state":"NY","lat":"40.7125016","long":"-74.0094639"},{"street":"20 Cardinal Hayes Place","name":"St. Andrew&apos;s Church","city":"New York","state":"NY","lat":"40.7132514","long":"-74.002398"},{"street":"22 Barclay Street (Basement)","name":"Saint Peter&apos;s Church","city":"New York","state":"NY","lat":"40.7125016","long":"-74.0094639"},{"street":"283 West Broadway","name":"Hazelden Tribeca","city":"New York","state":"NY","lat":"40.6344072","long":"-74.1170382"},{"street":"125 Barclay Street","name":"Municipal Union Bldg DC 37","city":"New York","state":"NY","lat":"40.7143477","long":"-74.0130151"},{"street":"49 Fulton Street","name":"St. Margaret&apos;s House","city":"New York","state":"NY","lat":"40.7080393","long":"-74.0042361"},{"street":"49 Fulton Street","name":"St. Margaret&apos;s House","city":"New York","state":"NY","lat":"40.7080393","long":"-74.0042361"},{"street":"20 Cardinal Hayes Place","name":"Church of Saint Andrew","city":"New York","state":"NY","lat":"40.7132514","long":"-74.002398"},{"street":"283 West Broadway","name":"Tribeca 12 Building","city":"New York","state":"NY","lat":"40.7144166","long":"-73.9843646"},{"street":"49 Fulton Street","name":"","city":"New York","state":"NY","lat":"40.7080393","long":"-74.0042361"},{"street":"22 Barclay Street- basement chapel","name":"St. Peter&apos;s Church","city":"New York","state":"NY","lat":"40.7125016","long":"-74.0094639"},{"street":"20 Cardinal Hayes Place","name":"St. Andrew&apos;s Church","city":"New York","state":"NY","lat":"40.7132514","long":"-74.002398"},{"street":"283 West Broadway","name":"Hazelden Center","city":"New York","state":"NY","lat":"40.6344072","long":"-74.1170382"},{"street":"283 West Broadway","name":"Hazelden Center","city":"New York","state":"NY","lat":"40.6344072","long":"-74.1170382"},{"street":"283 W. Broadway","name":"Hazelden Center","city":"New York","state":"NY","lat":"40.6344072","long":"-74.1170382"}]