[{"street":"207 West 96th Street","name":"Holy Name Church","city":"New York","state":"NY","lat":"40.7945161","long":"-73.9710419"},{"street":"120 West 69th Street","name":"Christ &amp; St. Stephen&apos;s Church","city":"New York","state":"NY","lat":"40.7756982","long":"-73.9810333"},{"street":"422 West 57th Street","name":"Trinity Presbyterian Church","city":"New York","state":"NY","lat":"40.7682311","long":"-73.9868768"},{"street":"164 West 74th Street","name":"Phoenix House","city":"New York","state":"NY","lat":"40.7796117","long":"-73.9801807"},{"street":"207 West 96th Street","name":"Holy Name Church","city":"New York","state":"NY","lat":"40.7945161","long":"-73.9710419"},{"street":"144 West 90th Street","name":"St. Gregory&apos;s Church","city":"New York","state":"NY","lat":"40.7898068","long":"-73.9723737"},{"street":"141 West 73rd Street","name":"Hamilton House","city":"New York","state":"NY","lat":"40.7789036","long":"-73.9799533"},{"street":"4 West 76th Street. Meeting in the gym.","name":"Fourth Universalist Church","city":"New York","state":"NY","lat":"40.7788736","long":"-73.9745891"},{"street":"221 West 107th Street","name":"Church of the Ascension","city":"New York","state":"NY","lat":"40.8017795","long":"-73.9665393"},{"street":"207 West 96th Street","name":"Holy Name Church","city":"New York","state":"NY","lat":"40.7945161","long":"-73.9710419"},{"street":"215 West 82nd Street","name":"Holy Trinity Rectory","city":"New York","state":"NY","lat":"40.7852818734432","long":"-73.9771060064311"},{"street":"601 West 114th Street","name":"Broadway Presbyterian Church","city":"New York","state":"NY","lat":"40.8069051","long":"-73.965058"},{"street":"Central Park West &amp; 76th Street - basement gymnasium","name":"Universalist Church","city":"New York","state":"NY","lat":"40.6639307188879","long":"-73.9382749875207"},{"street":"5 West 63rd Street","name":"West Side YMCA at 63rd Street","city":"New York","state":"NY","lat":"40.7708644","long":"-73.9806413"},{"street":"4 West 76th Street","name":"Universalist Church","city":"New York","state":"NY","lat":"40.7788736","long":"-73.9745891"},{"street":"160 Central Park West","name":"Fourth Universalist Society","city":"New York","state":"NY","lat":"40.7787712","long":"-73.9743066"},{"street":"152 West 66th Street","name":"Good Shepherd Faith Church","city":"New York","state":"NY","lat":"40.7744405","long":"-73.9838262"},{"street":"3 West 95th Street","name":"Second Presbyterian Church","city":"New York","state":"NY","lat":"40.7912379","long":"-73.9655109"},{"street":"251 West 80th Street","name":"All Angels Church","city":"New York","state":"NY","lat":"40.7848713","long":"-73.9800524"},{"street":"111 West 71st Street","name":"Hargrave House","city":"New York","state":"NY","lat":"40.7769516","long":"-73.9795507"},{"street":"5 West 63rd Street","name":"West Side YMCA","city":"New York","state":"NY","lat":"40.7708644","long":"-73.9806413"},{"street":"5 West 63rd Street","name":"West Side YMCA","city":"New York","state":"NY","lat":"40.7708644","long":"-73.9806413"},{"street":"207 West 96th Street","name":"Holy Name Church","city":"New York","state":"NY","lat":"40.7945161","long":"-73.9710419"},{"street":"26 West 84th Street","name":"Church of St. Matthew and St. Timothy","city":"New York","state":"NY","lat":"40.7844228","long":"-73.9716168"},{"street":"200 West 97th Street","name":"Holy Name School","city":"New York","state":"NY","lat":"40.7946604892952","long":"-73.9699229082063"},{"street":"218 West 108th Street","name":"Grace House","city":"New York","state":"NY","lat":"40.8021037","long":"-73.9658778"},{"street":"125 West 104th Street","name":"Iglesia Metodista Grace","city":"New York","state":"NY","lat":"40.7985878","long":"-73.9649967"},{"street":"141 West 73rd Street","name":"Hamilton House","city":"New York","state":"NY","lat":"40.7789036","long":"-73.9799533"},{"street":"236 West 73rd Street","name":"Rutgers Church","city":"New York","state":"NY","lat":"40.7796494","long":"-73.982239"},{"street":"165 West 105th Street","name":"West End Presbyterian Church","city":"New York","state":"NY","lat":"40.7996866","long":"-73.9657282"},{"street":"207 West 96th Street","name":"Holy Name Church","city":"New York","state":"NY","lat":"40.7945161","long":"-73.9710419"},{"street":"207 West 96th Street","name":"Holy Name Church Rectory","city":"New York","state":"NY","lat":"40.7945161","long":"-73.9710419"},{"street":"2504 Broadway","name":"Advent Lutheran Church","city":"New York","state":"NY","lat":"40.7927534","long":"-73.972842"},{"street":"405 West 114th Street","name":"Church of Notre Dame","city":"New York","state":"NY","lat":"40.7946083","long":"-73.9358608"},{"street":"368 West End Ave","name":"West End Collegiate Church","city":"New York","state":"NY","lat":"40.783225","long":"-73.9817572"},{"street":"225 West 99th Street","name":"St. Michael&apos;s Parish House","city":"New York","state":"NY","lat":"40.7964452","long":"-73.9694226"},{"street":"251 West 100th Street","name":"Anshe Chesed Synagogue","city":"New York","state":"NY","lat":"40.7977791","long":"-73.9709911"},{"street":"207 West 96th Street","name":"Holy Name Church","city":"New York","state":"NY","lat":"40.7945161","long":"-73.9710419"},{"street":"26 West 84th Street","name":"Church of St. Matthew &amp; St. Timothy","city":"New York","state":"NY","lat":"40.7844228","long":"-73.9716168"},{"street":"5 West 63rd Street","name":"West Side YMCA","city":"New York","state":"NY","lat":"40.7708644","long":"-73.9806413"},{"street":"552 West End Avenue","name":"St. Ignatius Church","city":"New York","state":"NY","lat":"40.78931","long":"-73.9773114"},{"street":"164 West 74 Street","name":"Phoenix House","city":"New York","state":"NY","lat":"40.7796117","long":"-73.9801807"},{"street":"340 West 85th Street","name":"Volunteers of America","city":"New York","state":"NY","lat":"40.7887343","long":"-73.9798639"},{"street":"368 West End Avenue","name":"West End Collegiate Church","city":"New York","state":"NY","lat":"40.783225","long":"-73.9817572"},{"street":"152 West 71st Street","name":"Blessed Sacrament Church Rectory","city":"New York","state":"NY","lat":"40.7774259","long":"-73.9812051"},{"street":"5 West 63rd Street","name":"West Side YMCA","city":"New York","state":"NY","lat":"40.7708644","long":"-73.9806413"},{"street":"131 West 72nd Street","name":"","city":"New York","state":"NY","lat":"40.7780247","long":"-73.9798344"},{"street":"207 West 96th Street","name":"Holy Name Church","city":"New York","state":"NY","lat":"40.7945161","long":"-73.9710419"},{"street":"152 West 71st Street","name":"Blessed Sacrament Church Rectory","city":"New York","state":"NY","lat":"40.7774259","long":"-73.9812051"},{"street":"30 West 68th Street","name":"Stephen Wise Free Synagogue","city":"New York","state":"NY","lat":"40.7740859","long":"-73.979107"},{"street":"207 West 96th Street","name":"Holy Name Church","city":"New York","state":"NY","lat":"40.7945161","long":"-73.9710419"},{"street":"263 West 86th Street","name":"Church of St. Paul &amp; St. Andrew","city":"New York","state":"NY","lat":"40.7887918","long":"-73.9772649"},{"street":"306 West 102nd Street","name":"Addiction Institute","city":"New York","state":"NY","lat":"40.7992334","long":"-73.9710638"},{"street":"152 West 71st Street","name":"Blessed Sacrament Church Rectory","city":"New York","state":"NY","lat":"40.7774259","long":"-73.9812051"},{"street":"26 West 84th Street","name":"Church of St.Matthew &amp; St. Timothy","city":"New York","state":"NY","lat":"40.7844228","long":"-73.9716168"},{"street":"595 Columbus Avenue","name":"Goddard Riverside Community Center","city":"New York","state":"NY","lat":"40.7879892","long":"-73.9707609"},{"street":"306 West 102nd Street","name":"Trinity Halfway House","city":"New York","state":"NY","lat":"40.7992334","long":"-73.9710638"},{"street":"213 West 82nd Street","name":"Holy Trinity Church","city":"New York","state":"NY","lat":"40.7760114","long":"-73.9550312"},{"street":"152 West 71st Street","name":"Blessed Sacrament (Rectory)","city":"New York","state":"NY","lat":"40.7774259","long":"-73.9812051"},{"street":"152 west 71st street","name":"","city":"New York","state":"NY","lat":"40.7774259","long":"-73.9812051"},{"street":"152 West 71st Street","name":"Blessed Sacrament (Rectory)","city":"New York","state":"NY","lat":"40.7774259","long":"-73.9812051"},{"street":"160 Central Park West","name":"Universalist Church","city":"New York","state":"NY","lat":"40.7787712","long":"-73.9743066"},{"street":"207 West 96th Street","name":"Holy Name Church","city":"New York","state":"NY","lat":"40.7945161","long":"-73.9710419"}]